[
  {
    "id": 1,
    "place": "P+R METRO MARYMONT",
    "location": "Żoliborz, close to the intersection of Słowackiego and Włościańska Streets.",
    "latitude": 52.27114,
    "longtitude": 20.97046,
    "capacity": 400
  },
  {
    "id": 2,
    "place": "P+R ANIN SKM",
    "location": "Anin, close to the intersection of Szpotańskiego and VIII Poprzeczna Streets, close to Warszawa Anin train station.",
    "latitude": 52.21349,
    "longtitude": 21.16038,
    "capacity": 83
  },
  {
    "id": 3,
    "place": "P+R AL. KRAKOWSKA",
    "location": "Włochy, close to the intersection of Krakowska Avenue and Mineralna Street, close to the tram & bus terminus ",
    "latitude": 52.175136,
    "longtitude": 20.943750,
    "capacity": 415
  },
  {
    "id": 4,
    "place": "P+R WAWER SKM",
    "location": "Wawer, Widoczna Street, close to Warszawa Wawer train station",
    "latitude": 52.22242,
    "longtitude": 21.14983,
    "capacity": 133
  },
  {
    "id": 5,
    "place": "P+R METRO IMIELIN",
    "location": "Ursynów, close to the intersection of Komisji Edukacji Narodowej Avenue and Indiry Gandhi Street, behind the Multikino, close to metro station",
    "latitude": 52.150227,
    "longtitude": 21.047352,
    "capacity": 236
  },
  {
    "id": 6,
    "place": "P+R URSUS NIEDŹWIADEK",
    "location": "st. Orląt Lwowskich 45, near to the bus terminus Ursus Niedźwiadek and railvay station",
    "latitude": 52.19104864,
    "longtitude": 20.8675057,
    "capacity": 348
  },
  {
    "id": 7,
    "place": "P+R METRO WAWRZYSZEW",
    "location": "Bielany, close to the intersection of Kasprowicza and Przytyk Streets, next to Wawrzyszewmetro station",
    "latitude": 52.28701,
    "longtitude": 20.93805,
    "capacity": 80
  },
  {
    "id": 8,
    "place": "parking P+R Stadion Narodowy (National Stadium)",
    "location": "Praga Południe, parking place of the National Stadium, next to railvay station Warszawa Stadion.",
    "latitude": 52.245011,
    "longtitude": 21.044525,
    "capacity": 110
  },
  {
    "id": 9,
    "place": "parking P+R METRO STOKŁOSY",
    "location": "Ursynów, close to the intersection of Komisji Edukacji Narodowej avenue and i Ciszewskiego street, next to the metro station Stokłosy",
    "latitude": 52.15394,
    "longtitude": 21.03757,
    "capacity": 393
  },
  {
    "id": 10,
    "place": "P+R METRO MŁOCINY",
    "location": "Bielany, close to the intersection of 30 Pułku Strzelców Kaniowskich and Zgrupowania AK Kampinos Streets, next to metro station ",
    "latitude": 52.29023,
    "longtitude": 20.92718,
    "capacity": 1010
  },
  {
    "id": 11,
    "place": "P+R METRO MŁOCINY II",
    "location": "Bielany, close to the intersection of 30 Pułku Strzelców Kaniowskich Street and Zgrupowania AK Kampinos Street, next to metro station ",
    "latitude": 52.292621,
    "longtitude": 20.928971,
    "capacity": 72
  },
  {
    "id": 12,
    "place": "parking P+R METRO MŁOCINY III",
    "location": "Bielany, between Nocznickiego and Sokratesa streets, next to metro station",
    "latitude": 52.29018,
    "longtitude": 20.93114,
    "capacity": 157
  },
  {
    "id": 13,
    "place": "P+R METRO URSYNÓW",
    "location": "Ursynów, close to the intersection of Komisji Edukacji Narodowej Avenue and Ciszewskiego Street , next to metro station.",
    "latitude": 52.16259,
    "longtitude": 21.02742,
    "capacity": 166
  },
  {
    "id": 14,
    "place": "P+R AL. WILANOWSKA",
    "location": "Mokotów, close to the intersection of Puławska Street and Wilanowska Avenue, next to the metro station  ",
    "latitude": 52.18005,
    "longtitude": 21.02476,
    "capacity": 290
  },
  {
    "id": 15,
    "place": "P+R POŁCZYŃSKA",
    "location": "Bemowo, Połczyńska Street, between a car salon and railway line ",
    "latitude": 52.22222,
    "longtitude": 20.92240,
    "capacity": 500
  }
]